[[{"sceneSize":null,"absoluteOrbit":"65207","farEndLat":62.5184,"sensor":"SAR","farStartLat":61.5535,"processingTypeName":"L0","finalFrame":"1239","lookAngle":"NA","processingType":"L0","startTime":"2008-05-02 03:24:50","stringFootprint":"POLYGON ((-148.1283 61.4115, -146.2181 61.5535, -146.582 62.5184, -148.5536 62.374, -148.1283 61.4115))","doppler":"-4284.49","baselinePerp":"-351.6965","sarSceneId":null,"insarStackSize":"80","centerLat":61.9679,"processingDescription":"Raw signal SAR data.","product_file_id":"R1_65207_ST5_F155_L0","nearEndLon":-148.5536,"farEndLon":-146.582,"percentTroposphere":null,"frameNumber":"155","percentCoherence":null,"nearStartLon":-148.1283,"sceneDate":"2008-05-02 03:25:07","sceneId":"R1_65207_ST5_F155","productName":"R1_65207_ST5_F155","platform":"RADARSAT-1","masterGranule":null,"thumbnailUrl":"https://datapool.asf.alaska.edu/THUMBNAIL/R1/R1_65207_ST5_F155_THUMBNAIL.jpg","percentUnwrapped":null,"beamSwath":"ST5","firstFrame":"1239","insarGrouping":"1922294","centerLon":-147.3702,"faradayRotation":"NA","fileName":"R1_65207_ST5_L0_F155.zip","offNadirAngle":"NA","granuleName":"R1_65207_ST5_F155","frequency":null,"catSceneId":null,"farStartLon":-146.2181,"processingDate":"2010-11-06 06:08:05","missionName":"ASF-R1-Standard","relativeOrbit":"296","flightDirection":"ASCENDING","granuleType":"R1_STD_FRAME","configurationName":"Radarsat-1 Standard Beam 5 SAR","polarization":"HH","stopTime":"2008-05-02 03:25:07","browse":"https://datapool.asf.alaska.edu/BROWSE/R1/R1_65207_ST5_F155.jpg","nearStartLat":61.4115,"flightLine":"296","status":null,"formatName":null,"nearEndLat":62.374,"downloadUrl":"https://datapool.asf.alaska.edu/L0/R1/R1_65207_ST5_L0_F155.zip","incidenceAngle":null,"processingTypeDisplay":"Level Zero","thumbnail":"https://datapool.asf.alaska.edu/THUMBNAIL/R1/R1_65207_ST5_F155_THUMBNAIL.jpg","track":null,"collectionName":"ASF-R1-Standard","sceneDateString":null,"beamMode":"Standard","beamModeType":"ST5","processingLevel":"L0","lookDirection":"R","varianceTroposphere":null,"slaveGranule":null},{"sceneSize":null,"absoluteOrbit":"65207","farEndLat":62.5184,"sensor":"SAR","farStartLat":61.5535,"processingTypeName":"L1","finalFrame":"1239","lookAngle":"NA","processingType":"L1","startTime":"2008-05-02 03:24:50","stringFootprint":"POLYGON ((-148.1283 61.4115, -146.2181 61.5535, -146.582 62.5184, -148.5536 62.374, -148.1283 61.4115))","doppler":"-4284.49","baselinePerp":"-351.6965","sarSceneId":null,"insarStackSize":"80","centerLat":61.9679,"processingDescription":"Full size browse image","product_file_id":"R1_65207_ST5_F155_BROWSE","nearEndLon":-148.5536,"farEndLon":-146.582,"percentTroposphere":null,"frameNumber":"155","percentCoherence":null,"nearStartLon":-148.1283,"sceneDate":"2008-05-02 03:25:07","sceneId":"R1_65207_ST5_F155","productName":"R1_65207_ST5_F155","platform":"RADARSAT-1","masterGranule":null,"thumbnailUrl":"https://datapool.asf.alaska.edu/THUMBNAIL/R1/R1_65207_ST5_F155_THUMBNAIL.jpg","percentUnwrapped":null,"beamSwath":"ST5","firstFrame":"1239","insarGrouping":"1922294","centerLon":-147.3702,"faradayRotation":"NA","fileName":"R1_65207_ST5_F155.jpg","offNadirAngle":"NA","granuleName":"R1_65207_ST5_F155","frequency":null,"catSceneId":null,"farStartLon":-146.2181,"processingDate":"2010-11-06 06:06:17","missionName":"ASF-R1-Standard","relativeOrbit":"296","flightDirection":"ASCENDING","granuleType":"R1_STD_FRAME","configurationName":"Radarsat-1 Standard Beam 5 SAR","polarization":"HH","stopTime":"2008-05-02 03:25:07","browse":"https://datapool.asf.alaska.edu/BROWSE/R1/R1_65207_ST5_F155.jpg","nearStartLat":61.4115,"flightLine":"296","status":null,"formatName":null,"nearEndLat":62.374,"downloadUrl":"https://datapool.asf.alaska.edu/BROWSE/R1/R1_65207_ST5_F155.jpg","incidenceAngle":null,"processingTypeDisplay":"Browse Image","thumbnail":"https://datapool.asf.alaska.edu/THUMBNAIL/R1/R1_65207_ST5_F155_THUMBNAIL.jpg","track":null,"collectionName":"ASF-R1-Standard","sceneDateString":null,"beamMode":"Standard","beamModeType":"ST5","processingLevel":"BROWSE","lookDirection":"R","varianceTroposphere":null,"slaveGranule":null},{"sceneSize":null,"absoluteOrbit":"65207","farEndLat":62.5184,"sensor":"SAR","farStartLat":61.5535,"processingTypeName":"L1","finalFrame":"1239","lookAngle":"NA","processingType":"L1","startTime":"2008-05-02 03:24:50","stringFootprint":"POLYGON ((-148.1283 61.4115, -146.2181 61.5535, -146.582 62.5184, -148.5536 62.374, -148.1283 61.4115))","doppler":"-4284.49","baselinePerp":"-351.6965","sarSceneId":null,"insarStackSize":"80","centerLat":61.9679,"processingDescription":"Fully processed SAR data.","product_file_id":"R1_65207_ST5_F155_L1","nearEndLon":-148.5536,"farEndLon":-146.582,"percentTroposphere":null,"frameNumber":"155","percentCoherence":null,"nearStartLon":-148.1283,"sceneDate":"2008-05-02 03:25:07","sceneId":"R1_65207_ST5_F155","productName":"R1_65207_ST5_F155","platform":"RADARSAT-1","masterGranule":null,"thumbnailUrl":"https://datapool.asf.alaska.edu/THUMBNAIL/R1/R1_65207_ST5_F155_THUMBNAIL.jpg","percentUnwrapped":null,"beamSwath":"ST5","firstFrame":"1239","insarGrouping":"1922294","centerLon":-147.3702,"faradayRotation":"NA","fileName":"R1_65207_ST5_F155.zip","offNadirAngle":"NA","granuleName":"R1_65207_ST5_F155","frequency":null,"catSceneId":null,"farStartLon":-146.2181,"processingDate":"2010-11-06 06:06:24","missionName":"ASF-R1-Standard","relativeOrbit":"296","flightDirection":"ASCENDING","granuleType":"R1_STD_FRAME","configurationName":"Radarsat-1 Standard Beam 5 SAR","polarization":"HH","stopTime":"2008-05-02 03:25:07","browse":"https://datapool.asf.alaska.edu/BROWSE/R1/R1_65207_ST5_F155.jpg","nearStartLat":61.4115,"flightLine":"296","status":null,"formatName":null,"nearEndLat":62.374,"downloadUrl":"https://datapool.asf.alaska.edu/L1/R1/R1_65207_ST5_F155.zip","incidenceAngle":null,"processingTypeDisplay":"Level One Image","thumbnail":"https://datapool.asf.alaska.edu/THUMBNAIL/R1/R1_65207_ST5_F155_THUMBNAIL.jpg","track":null,"collectionName":"ASF-R1-Standard","sceneDateString":null,"beamMode":"Standard","beamModeType":"ST5","processingLevel":"L1","lookDirection":"R","varianceTroposphere":null,"slaveGranule":null},{"sceneSize":null,"absoluteOrbit":"84697","farEndLat":62.3629,"sensor":"SAR","farStartLat":63.3148,"processingTypeName":"L1","finalFrame":"2336","lookAngle":"NA","processingType":"L1","startTime":"2011-07-02 21:00:46","stringFootprint":"POLYGON ((-145.2655 63.0779, -147.1686 63.3148, -147.711 62.3629, -145.8678 62.1315, -145.2655 63.0779))","doppler":"0","baselinePerp":"905.6948","sarSceneId":null,"insarStackSize":"26","centerLat":62.7253,"processingDescription":"Fully processed SAR data.","product_file_id":"E2_84697_STD_F293_L1","nearEndLon":-145.8678,"farEndLon":-147.711,"percentTroposphere":null,"frameNumber":"293","percentCoherence":null,"nearStartLon":-145.2655,"sceneDate":"2011-07-02 21:01:03","sceneId":"E2_84697_STD_F293","productName":"E2_84697_STD_F293","platform":"ERS-2","masterGranule":null,"thumbnailUrl":"https://datapool.asf.alaska.edu/THUMBNAIL/E2/E2_84697_STD_F293_THUMBNAIL.jpg","percentUnwrapped":null,"beamSwath":"STD","firstFrame":"2336","insarGrouping":"1735098","centerLon":-146.5036,"faradayRotation":"NA","fileName":"E2_84697_STD_F293.zip","offNadirAngle":"NA","granuleName":"E2_84697_STD_F293","frequency":null,"catSceneId":null,"farStartLon":-147.1686,"processingDate":"2011-10-05 07:07:10","missionName":"ASF-E2-Standard","relativeOrbit":"17","flightDirection":"DESCENDING","granuleType":"E2_STD_FRAME","configurationName":"ERS-1,ERS-2,JERS-1,SEASAT,SMAP Standard Beam SAR","polarization":"VV","stopTime":"2011-07-02 21:01:03","browse":"https://datapool.asf.alaska.edu/BROWSE/E2/E2_84697_STD_F293.jpg","nearStartLat":63.0779,"flightLine":"17","status":null,"formatName":null,"nearEndLat":62.1315,"downloadUrl":"https://datapool.asf.alaska.edu/L1/E2/E2_84697_STD_F293.zip","incidenceAngle":null,"processingTypeDisplay":"Level One Image","thumbnail":"https://datapool.asf.alaska.edu/THUMBNAIL/E2/E2_84697_STD_F293_THUMBNAIL.jpg","track":null,"collectionName":"ASF-E2-Standard","sceneDateString":null,"beamMode":"Standard","beamModeType":"STD","processingLevel":"L1","lookDirection":"R","varianceTroposphere":null,"slaveGranule":null},{"sceneSize":null,"absoluteOrbit":"84697","farEndLat":62.3629,"sensor":"SAR","farStartLat":63.3148,"processingTypeName":"L0","finalFrame":"2336","lookAngle":"NA","processingType":"L0","startTime":"2011-07-02 21:00:46","stringFootprint":"POLYGON ((-145.2655 63.0779, -147.1686 63.3148, -147.711 62.3629, -145.8678 62.1315, -145.2655 63.0779))","doppler":"0","baselinePerp":"905.6948","sarSceneId":null,"insarStackSize":"26","centerLat":62.7253,"processingDescription":"Raw signal SAR data.","product_file_id":"E2_84697_STD_F293_L0","nearEndLon":-145.8678,"farEndLon":-147.711,"percentTroposphere":null,"frameNumber":"293","percentCoherence":null,"nearStartLon":-145.2655,"sceneDate":"2011-07-02 21:01:03","sceneId":"E2_84697_STD_F293","productName":"E2_84697_STD_F293","platform":"ERS-2","masterGranule":null,"thumbnailUrl":"https://datapool.asf.alaska.edu/THUMBNAIL/E2/E2_84697_STD_F293_THUMBNAIL.jpg","percentUnwrapped":null,"beamSwath":"STD","firstFrame":"2336","insarGrouping":"1735098","centerLon":-146.5036,"faradayRotation":"NA","fileName":"E2_84697_STD_L0_F293.zip","offNadirAngle":"NA","granuleName":"E2_84697_STD_F293","frequency":null,"catSceneId":null,"farStartLon":-147.1686,"processingDate":"2011-10-05 07:18:42","missionName":"ASF-E2-Standard","relativeOrbit":"17","flightDirection":"DESCENDING","granuleType":"E2_STD_FRAME","configurationName":"ERS-1,ERS-2,JERS-1,SEASAT,SMAP Standard Beam SAR","polarization":"VV","stopTime":"2011-07-02 21:01:03","browse":"https://datapool.asf.alaska.edu/BROWSE/E2/E2_84697_STD_F293.jpg","nearStartLat":63.0779,"flightLine":"17","status":null,"formatName":null,"nearEndLat":62.1315,"downloadUrl":"https://datapool.asf.alaska.edu/L0/E2/E2_84697_STD_L0_F293.zip","incidenceAngle":null,"processingTypeDisplay":"Level Zero","thumbnail":"https://datapool.asf.alaska.edu/THUMBNAIL/E2/E2_84697_STD_F293_THUMBNAIL.jpg","track":null,"collectionName":"ASF-E2-Standard","sceneDateString":null,"beamMode":"Standard","beamModeType":"STD","processingLevel":"L0","lookDirection":"R","varianceTroposphere":null,"slaveGranule":null},{"sceneSize":null,"absoluteOrbit":"84697","farEndLat":62.3629,"sensor":"SAR","farStartLat":63.3148,"processingTypeName":"L1","finalFrame":"2336","lookAngle":"NA","processingType":"L1","startTime":"2011-07-02 21:00:46","stringFootprint":"POLYGON ((-145.2655 63.0779, -147.1686 63.3148, -147.711 62.3629, -145.8678 62.1315, -145.2655 63.0779))","doppler":"0","baselinePerp":"905.6948","sarSceneId":null,"insarStackSize":"26","centerLat":62.7253,"processingDescription":"Full size browse image","product_file_id":"E2_84697_STD_F293_BROWSE","nearEndLon":-145.8678,"farEndLon":-147.711,"percentTroposphere":null,"frameNumber":"293","percentCoherence":null,"nearStartLon":-145.2655,"sceneDate":"2011-07-02 21:01:03","sceneId":"E2_84697_STD_F293","productName":"E2_84697_STD_F293","platform":"ERS-2","masterGranule":null,"thumbnailUrl":"https://datapool.asf.alaska.edu/THUMBNAIL/E2/E2_84697_STD_F293_THUMBNAIL.jpg","percentUnwrapped":null,"beamSwath":"STD","firstFrame":"2336","insarGrouping":"1735098","centerLon":-146.5036,"faradayRotation":"NA","fileName":"E2_84697_STD_F293.jpg","offNadirAngle":"NA","granuleName":"E2_84697_STD_F293","frequency":null,"catSceneId":null,"farStartLon":-147.1686,"processingDate":"2011-10-05 07:07:03","missionName":"ASF-E2-Standard","relativeOrbit":"17","flightDirection":"DESCENDING","granuleType":"E2_STD_FRAME","configurationName":"ERS-1,ERS-2,JERS-1,SEASAT,SMAP Standard Beam SAR","polarization":"VV","stopTime":"2011-07-02 21:01:03","browse":"https://datapool.asf.alaska.edu/BROWSE/E2/E2_84697_STD_F293.jpg","nearStartLat":63.0779,"flightLine":"17","status":null,"formatName":null,"nearEndLat":62.1315,"downloadUrl":"https://datapool.asf.alaska.edu/BROWSE/E2/E2_84697_STD_F293.jpg","incidenceAngle":null,"processingTypeDisplay":"Browse Image","thumbnail":"https://datapool.asf.alaska.edu/THUMBNAIL/E2/E2_84697_STD_F293_THUMBNAIL.jpg","track":null,"collectionName":"ASF-E2-Standard","sceneDateString":null,"beamMode":"Standard","beamModeType":"STD","processingLevel":"BROWSE","lookDirection":"R","varianceTroposphere":null,"slaveGranule":null}],6,"",{},""]